{
  "cities": [
    {
      "cityName": "Lisbon",
      "country": "Portugal",
      "emoji": "ðŸ‡µðŸ‡¹",
      "date": "2027-10-31T15:59:59.138Z",
      "notes": "My favorite city so far!",
      "position": {
        "lat": 38.727881642324164,
        "lng": -9.140900099907554
      },
      "id": 73930385
    },
    {
      "cityName": "Madrid",
      "country": "Spain",
      "emoji": "ðŸ‡ªðŸ‡¸",
      "date": "2027-07-15T08:22:53.976Z",
      "notes": "",
      "position": {
        "lat": 40.46635901755316,
        "lng": -3.7133789062500004
      },
      "id": 17806751
    },
    {
      "cityName": "Berlin",
      "country": "Germany",
      "emoji": "ðŸ‡©ðŸ‡ª",
      "date": "2027-02-12T09:24:11.863Z",
      "notes": "Amazing ðŸ˜ƒ",
      "position": {
        "lat": 52.53586782505711,
        "lng": 13.376933665713324
      },
      "id": 98443197
    },
    {
      "cityName": "Nijar",
      "country": "Spain",
      "emoji": "ðŸ‡ªðŸ‡¸",
      "date": "2023-04-03T07:47:59.202Z",
      "notes": "",
      "position": {
        "lat": "36.967508314568164",
        "lng": "-2.13128394200588"
      },
      "id": 98443198
    },
    {
      "cityName": "Aousserd",
      "country": "Morocco",
      "emoji": "ðŸ‡²ðŸ‡¦",
      "date": "2024-09-19T17:27:53.052Z",
      "notes": "njehujedw",
      "position": {
        "lat": "23.045027396464675",
        "lng": "-14.809694918152116"
      },
      "id": 98443199
    },
    {
      "cityName": "Rabat",
      "country": "Morocco",
      "emoji": "ðŸ‡²ðŸ‡¦",
      "date": "2024-09-19T17:29:17.254Z",
      "notes": "Rabat is so beautiful",
      "position": {
        "lat": "33.87121507892402",
        "lng": "-6.5479796459613775"
      },
      "id": 98443200
    },
    {
      "cityName": "Castelo Branco",
      "country": "Portugal",
      "emoji": "ðŸ‡µðŸ‡¹",
      "date": "2024-09-19T17:29:43.125Z",
      "notes": "another test file ",
      "position": {
        "lat": "39.8776689062815",
        "lng": "-7.822242771539776"
      },
      "id": 98443201
    },
    {
      "cityName": "Ait Belkacem",
      "country": "Morocco",
      "emoji": "ðŸ‡²ðŸ‡¦",
      "date": "2024-09-19T18:02:28.692Z",
      "notes": "kekdkc",
      "position": {
        "lat": "33.85388178868447",
        "lng": "-6.416011849450248"
      },
      "id": 98443202
    }
  ]
}